[
    {
      "name": "Lahore Site",
      "Lat": "31.5204",
      "long": "74.3587",
      "performance": "Good Performing",
      "nar": "92",
      "voltage": "222V",
      "current": "50Amp",
      "powerSource": "Generator",
      "load": "65Amp",
      "fuel": "200Ltr",
      "reason": "Increased LS"
    },
    {
      "name": "Multan Site",
      "Lat": "31.5254",
      "long": "74.3597",
      "performance": "Best Performing",
      "nar": "94",
      "voltage": "221V",
      "current": "50Amp",
      "powerSource": "Battery",
      "load": "65Amp",
      "fuel": "200Ltr",
      "reason": "Operational Challenges"
    },
    {
      "name": "Islamabad Site",
      "Lat": "33.6844",
      "long": "73.0479",
      "performance": "Non-Performing",
      "nar": "99",
      "voltage": "222V",
      "current": "50Amp",
      "powerSource": "Generator",
      "load": "65Amp",
      "fuel": "200Ltr",
      "reason": "Bad Weather"
    },
    {
      "name": "Karachi Site",
      "Lat": "24.8607",
      "long": "67.0011",
      "performance": "Consistently Non-Performing",
      "nar": "86",
      "voltage": "222V",
      "current": "50Amp",
      "powerSource": "Generator",
      "load": "65Amp",
      "fuel": "200Ltr",
      "reason": "Operational Challenges"
    },
    {
      "name": "Peshawar Site",
      "Lat": "34.0151",
      "long": "71.5249",
      "performance": "Good Performing",
      "nar": "92",
      "voltage": "222V",
      "current": "50Amp",
      "powerSource": "Generator",
      "load": "65Amp",
      "fuel": "200Ltr",
      "reason":"Operational Challenges"
    },
    {
      "name": "Sargodha Site",
      "Lat": "32.0740",
      "long": "72.6861",
      "performance": "Best Performing",
      "nar": "94",
      "voltage": "221V",
      "current": "50Amp",
      "powerSource": "Battery",
      "load": "65Amp",
      "fuel": "200Ltr",
      "reason": "High Voltage"
    },
    {
      "name": "Rawalpindi Site",
      "Lat": "33.5651",
      "long": "73.0169",
      "performance": "Non-Performing",
      "nar": "91",
      "voltage": "222V",
      "current": "50Amp",
      "powerSource": "Generator",
      "load": "65Amp",
      "fuel": "200Ltr",
      "reason": "High Voltage"
    },
    {
      "name": "Karachi Site",
      "Lat": "30.1798",
      "long": "66.9750",
      "performance": "Consistently Non-Performing",
      "nar": "88",
      "voltage": "222V",
      "current": "50Amp",
      "powerSource": "Generator",
      "load": "65Amp",
      "fuel": "200Ltr",
      "reason": "Increased LS"
    },
    {
      "name": "Hayatabad Site",
      "Lat": "34.0151",
      "long": "71.5249",
      "performance": "Good Performing",
      "nar": "99",
      "voltage": "222V",
      "current": "50Amp",
      "powerSource": "Generator",
      "load": "65Amp",
      "fuel": "200Ltr",
      "reason": "High Voltage"
    },
    {
      "name": "Mansehra Site",
      "Lat": "32.0740",
      "long": "72.6861",
      "performance": "Best Performing",
      "nar": "96",
      "voltage": "221V",
      "current": "50Amp",
      "powerSource": "Battery",
      "load": "65Amp",
      "fuel": "200Ltr",
      "reason": "High Voltage"
    },
    {
      "name": "Hyderabad Site",
      "Lat": "33.5651",
      "long": "73.0169",
      "performance": "Non-Performing",
      "nar": "91",
      "voltage": "222V",
      "current": "50Amp",
      "powerSource": "Generator",
      "load": "65Amp",
      "fuel": "200Ltr",
      "reason": "Increased LS"
    },
    {
      "name": "Swat Site",
      "Lat": "30.1798",
      "long": "66.9750",
      "performance": "Consistently Non-Performing",
      "nar": "89",
      "voltage": "222V",
      "current": "50Amp",
      "powerSource": "Generator",
      "load": "65Amp",
      "Fuel": "200Ltr",
      "reason": "Increased LS"
    }
  ]
  